{

  "type": "FeatureCollection",

  "features": [

    {

      "type": "Clinic",

      "geometry": {

        "type": "Point",

        "coordinates": [-76.593681, 39.286289]

      },

      "properties": {

        "title": "Esperanza Center",

        "description": "Clinic for immigrants in Baltimore",

        "address": "430 S Broadway, Baltimore, MD 21231",

        "phone_number": "(667) 600-2900"

      }

    },

     {

      "type": "Clinic",

      "geometry": {

        "type": "Point",

        "coordinates": [-76.596500, 39.323980]

      },

      "properties": {

        "title": "Shepherd's Clinic",

        "description": "Clinic for the homeless",

        "address": "2800 Kirk Ave, Baltimore, MD 21218",

        "phone_number": "(410) 467-7140"

      }

    },

     {

      "type": "Clinic",

      "geometry": {

        "type": "Point",

        "coordinates": [-76.609352,39.293819]

      },

      "properties": {

        "title": "Healthcare for the Homeless",

        "description": "exactly as it sounds -- free healthcare",

        "address": "421 Fallsway, Baltimore, MD 21202",

        "phone_number": "(410) 837-5533"

      }

    },

    {

      "type": "Shelter",

      "geometry": {

        "type": "Point",

        "coordinates": [-76.599850,39.291630]

      },

      "properties": {

        "title": "Baltimore Rescue Mission",

        "description": "Emergency shelter for men in Baltimore.",

        "address": "4 N Central Ave, Baltimore, MD 21202",

        "phone_number": "(410) 342-2533"

      }

    },

      {

      "type": "Clinic",

      "geometry": {

        "type": "Point",

        "coordinates": [-76.600030,39.292570]

      },

      "properties": {

        "title": "Eastern Sexual Health Clinic",

        "description": "Free STI testing and treatment among other services.",

        "address": "1200 E. Fayette St., Baltimore, MD 21202",

        "phone_number": "(410) 396-9410"

      }

    },

        {

      "type": "Clinic",

      "geometry": {

        "type": "Point",

        "coordinates": [-76.641390,39.309940]

      },

      "properties": {

        "title": "Druid Sexual Health Clinic",

        "description": "Free STI testing and treatment among other services.",

        "address": "1515 W. North Ave, Baltimore, MD 21217",

        "phone_number": "(410) 396-0176"

      }

    },

         {

      "type": "Clinic",

      "geometry": {

        "type": "Point",

        "coordinates": [-76.603520,39.291290]

      },

      "properties": {

        "title": "HIV/STD Prevention Program Administrative Office",

        "description": "Free STI testing and treatment among other services.",

        "address": "1001 E. Fayette St., Baltimore, MD 21202",

        "phone_number": "(410) 396-4448"

      }

    },

       {

      "type": "Shelter",

      "geometry": {

        "type": "Point",

        "coordinates": [-76.614410,39.280680]

      },

      "properties": {

        "title": "Baltimore Outreach Services",

        "description": "Homeless shelter for Baltimore's homeless - available 24 hours",

        "address": "701 S Charles St",

        "phone_number": "(410) 752-1285"

      }

    },

       {

      "type": "Shelter",

      "geometry": {

        "type": "Point",

        "coordinates":[-76.600120,39.291330]

      },

      "properties": {

        "title": "Karis Home",

        "description": "Homeless shelter for Baltimore's homeless - specifically for women and children",

        "address": "1228 E Baltimore St",

        "phone_number": "(410) 342-1323"

      }

    },

    {

      "type": "Shelter",

      "geometry": {

        "type": "Point",

        "coordinates":[-76.587450,39.296180]

      },

      "properties": {

        "title": "Bea Gaddy Family Center Inc",

        "description": "Homeless shelter for Baltimore's homeless",

        "address": "425 N Chester St, Baltimore, MD 21231",

        "phone_number": "(410) 563-2749"

      }

    },

     {

      "type": "Shelter",

      "geometry": {

        "type": "Point",

        "coordinates":[-76.599854,39.291630]

      },

      "properties": {

        "title": "Baltimore Rescue Mission",

        "description": "Homeless shelter for Baltimore's homeless",

        "address": "4 N Central Ave, Baltimore, MD 21202",

        "phone_number": "(410) 342-2533"

      }

    },

      {

      "type": "Shelter",

      "geometry": {

        "type": "Point",

        "coordinates":[-76.643630,39.306610]

      },

      "properties": {

        "title": "South Baltimore Homeless Shelter",

        "description": "Homeless shelter for Baltimore's homeless",

        "address": "1611 Baker St, Baltimore, MD 21217",

        "phone_number": "no number listed"

      }

    },

  {

      "type": "Shelter",

      "geometry": {

        "type": "Point",

        "coordinates":[-76.601830,39.290540]

      },

      "properties": {

        "title": "Helping Up Mission",

        "description": "Homeless shelter for Baltimore's homeless",

        "address": "1029 E Baltimore St, Baltimore, MD 21202",

        "phone_number": "(410) 675-7500"

      }

    },

     {

      "type": "Shelter",

      "geometry": {

        "type": "Point",

        "coordinates":[-76.618080,39.310160]

      },

      "properties": {

        "title": "Project PLase",

        "description": "Homeless shelter for Baltimore's homeless: non-profit",

        "address": "1814 Maryland Ave, Baltimore, MD 21201",

        "phone_number": "(410) 837-1400"

      }},

        {

      "type": "Shelter",

      "geometry": {

        "type": "Point",

        "coordinates":[-76.610100,39.317921]

      },

      "properties": {

        "title": "Manna House",

        "description": "Provide meals to the homeless",

        "address": "435 E 25th St, Baltimore, MD 21218",

        "phone_number": "(410) 889-3001"

      }

    },

  {

      "type": "Shelter",

      "geometry": {

        "type": "Point",

        "coordinates":[-76.595470,39.286410]

      },

      "properties": {

        "title": "Beans & Bread",

        "description": "Provide meals to the homeless",

        "address": "402 S Bond St, Baltimore, MD 21231",

        "phone_number": "(410) 732-1892"

      }

    },

{

      "type": "Shelter",

      "geometry": {

        "type": "Point",

        "coordinates":[-76.582270,39.301480]

      },

      "properties": {

        "title": "Moveable Feast",

        "description": "Provide meals to the homeless",

        "address": " 901 N Milton Ave, Baltimore, MD 21205",

        "phone_number": "(410) 327-3420"

      }

    },

{

     "type": "Shelter",

      "geometry": {

        "type": "Point",

        "coordinates":[-76.583603,39.312462]

      },

      "properties": {

        "title": "New Life Food Pantry",

        "description": "Provide meals to the homeless",

        "address": " 2401 E North Ave, Baltimore, MD 21213",

        "phone_number": " (443) 800-0213"

      }

    },

  {

      "type": "Shelter",

      "geometry": {

        "type": "Point",

        "coordinates":[-76.606640,39.301200]

      },

      "properties": {

        "title": "Christopher's Place - Food Distribution Center",

        "description": "Food distribution",

        "address": " 709 E Eager St, Baltimore, MD 21202",

        "phone_number": "(410) 576-0066"

      }

    },
 {

      "type": "Clinic",

      "geometry": {

        "type": "Point",

        "coordinates":[-76.615780,39.302910]

      },

      "properties": {

        "title": "Chase Brexton Health Services",

        "description": "Affordable clinic",

        "address": "  1111 N Charles St, Baltimore, MD 21201",

        "phone_number": "(410) 837-2050"

      }

    },
   {

      "type": "Clinic",

      "geometry": {

        "type": "Point",

        "coordinates":[-76.641388,39.309940]

      },

      "properties": {

        "title": "Baltimore City Health Department- Adolescent and Reproductive Health Services",

        "description": "Affordable clinic",

        "address": "  1515 W North Ave, Baltimore, MD 21217",

        "phone_number": "(410) 396-0186"

      }

    },
     {

      "type": "Clinic",

      "geometry": {

        "type": "Point",

        "coordinates":[-76.641388,39.309940]

      },

      "properties": {

        "title": "Total Health Care - Open Gates Health Center",

        "description": "Affordable clinic",

        "address": "  1111 Washington Blvd, Baltimore, MD 21230",

        "phone_number": "(410) 383-8300"

      }

    },
     {

      "type": "Clinic",

      "geometry": {

        "type": "Point",

        "coordinates":[-76.600640,39.283920]

      },

      "properties": {

        "title": "MinuteClinic",

        "description": "Affordable clinic",

        "address": "  630 S Exeter St, Baltimore, MD 21202",

        "phone_number": "(866) 389-2727"

      }

    },
     {

      "type": "Clinic",

      "geometry": {

        "type": "Point",

        "coordinates":[-76.641720,39.291950]

      },

      "properties": {

        "title": "Total Health Care - Saratoga Health Center ",

        "description": "Affordable clinic",

        "address": "  1501 W Saratoga St, Baltimore, MD 21223",

        "phone_number": "(410) 383-8300"

      }

    },
      {

      "type": "Clinic",

      "geometry": {

        "type": "Point",

        "coordinates":[-76.641170,39.242550]

      },

      "properties": {

        "title": "Lansdowne Health Center ",

        "description": "Affordable clinic",

        "address": "  3902 Annapolis Rd, Lansdowne, MD 21227",

        "phone_number": "(410) 887-6000"

      }

    },
     {

      "type": "Clinic",

      "geometry": {

        "type": "Point",

        "coordinates":[-76.655228,39.283810]

      },

      "properties": {

        "title": "Total Health Care - Westside Health Center ",

        "description": "Affordable clinic",

        "address": "  2449 Frederick Ave, Baltimore, MD 21223",

        "phone_number": "(410) 383-8300"

      }

    },
     {

      "type": "Clinic",

      "geometry": {

        "type": "Point",

        "coordinates":[-76.614540,39.290901]

      },

      "properties": {

        "title": "AHF Healthcare Center - Baltimore ",

        "description": "Affordable clinic",

        "address": "  11 E Lexington St Ste 100, Baltimore, MD 21202",

        "phone_number": "(410) 246-4876"

      }

    },
      {

      "type": "Clinic",

      "geometry": {

        "type": "Point",

        "coordinates":[-76.614540,39.290901]

      },

      "properties": {

        "title": "AHF Healthcare Center - Baltimore ",

        "description": "Affordable clinic",

        "address": "  11 E Lexington St Ste 100, Baltimore, MD 21202",

        "phone_number": "(410) 246-4876"

      }

    },
      {

      "type": "Clinic",

      "geometry": {

        "type": "Point",

        "coordinates":[-76.615050,39.294970]

      },

      "properties": {

        "title": "Free Baltimore, LLC ",

        "description": "Affordable mental health clinic",

        "address": "  7 E Franklin St Floor 2, Baltimore, MD 21202",

        "phone_number": "(443) 759-7075"

      }

    },
       {

      "type": "Clinic",

      "geometry": {

        "type": "Point",

        "coordinates":[-76.592990,39.284250]

      },

      "properties": {

        "title": "Sameday Health ",

        "description": "Affordable health clinic",

        "address": "  609 S Broadway, Baltimore, MD 21231",

        "phone_number": "(310) 697-8126"

      }

    },
       {

      "type": "Clinic",

      "geometry": {

        "type": "Point",

        "coordinates":[-76.631562326,39.3032289]

      },

      "properties": {

        "title": "Division Health Center ",

        "description": "Affordable health clinic",

        "address": "  1501 Division St, Baltimore, MD 21217",

        "phone_number": "(410) 383-8300"

      }

    },
     {

      "type": "Clinic",

      "geometry": {

        "type": "Point",

        "coordinates":[-76.631562326,39.3032289]

      },

      "properties": {

        "title": "Division Health Center ",

        "description": "Affordable health clinic",

        "address": "  1501 Division St, Baltimore, MD 21217",

        "phone_number": "(410) 383-8300"

      }

    },
       {

      "type": "Clinic",

      "geometry": {

        "type": "Point",

        "coordinates":[	-76.69181,39.35758]

      },

      "properties": {

        "title": "RCC Health Services ",

        "description": "Affordable health clinic (for uninsured as well)",

        "address": "  6101 Park Heights Ave Suite 1D, Baltimore, MD 21215",

        "phone_number": "No number listed"

      }

    },
        {

      "type": "Clinic",

      "geometry": {

        "type": "Point",

        "coordinates":[	-76.67726,39.34814]

      },

      "properties": {

        "title": "Park West Health System ",

        "description": "Affordable health clinic ",

        "address": "  3319 W Belvedere Ave, Baltimore, MD 21215",

        "phone_number": "(410) 542-7800"

      }

    },
         {

      "type": "Clinic",

      "geometry": {

        "type": "Point",

        "coordinates":[	-76.67726,39.34814]

      },

      "properties": {

        "title": "Priority Care Clinics ",

        "description": "Affordable health clinic ",

        "address": "  3500 Boston St, Baltimore, MD 21224",

        "phone_number": "(410) 522-0001"

      }

    },
         {

      "type": "Clinic",

      "geometry": {

        "type": "Point",

        "coordinates":[	-76.5069157,39.2899429]

      },

      "properties": {

        "title": "Victory Medical Center",

        "description": "Affordable health clinic",

        "address": " 1101 North Point Blvd Suite 110, Baltimore, MD 21224",

        "phone_number": "(410) 624-5125"

      }

    },
   {

      "type": "Clinic",

      "geometry": {

        "type": "Point",

        "coordinates":[	-76.5642411,39.3235324]

      },

      "properties": {

        "title": "The EPEC Clinic",

        "description": "Affordable health clinic",

        "address": " 3311 Ramona Ave, Baltimore, MD 21213",

        "phone_number": "(443) 559-8354"

      }

    },
    {

      "type": "Clinic",

      "geometry": {

        "type": "Point",

        "coordinates":[	-76.603393,39.301642]

      },

      "properties": {

        "title": "East Baltimore Medical Center",

        "description": "Affordable health clinic",

        "address": "1000 E Eager St, Baltimore, MD 21202",

        "phone_number": " (410) 522-9800"

      }

    },
     {

      "type": "Clinic",

      "geometry": {

        "type": "Point",

        "coordinates":[	-76.615129,39.287611]

      },

      "properties": {

        "title": "Concentra Urgent Care",

        "description": "Affordable health clinic (occupational health)",

        "address": "100 S Charles St Suite 150, Baltimore, MD 21201",

        "phone_number": " (410) 752-3010"

      }

    },
     {

      "type": "Clinic",

      "geometry": {

        "type": "Point",

        "coordinates":[-76.6260679,39.2866055]

      },

      "properties": {

        "title": "Western Penn Women's Center",

        "description": "Affordable health clinic",

        "address": "120 Penn St, Baltimore, MD 21201",

        "phone_number": " (410) 706-2500"

      }

    },
 {

      "type": "Clinic",

      "geometry": {

        "type": "Point",

        "coordinates":[-76.7485799,39.3096814]

      },

      "properties": {

        "title": "Woodlawn Health Center",

        "description": "Affordable health clinic",

        "address": "6901 Security Blvd, Baltimore, MD 21207",

        "phone_number": " (410) 887-1332"

      }

    }
  ]

}